{
  "annotations": {
    "2K": {
      "end": 6897,
      "start": 6828,
      "strand": 1
    },
    "C": {
      "end": 456,
      "start": 90,
      "strand": 1
    },
    "E": {
      "end": 2472,
      "start": 960,
      "strand": 1
    },
    "M": {
      "end": 960,
      "start": 735,
      "strand": 1
    },
    "NS1": {
      "end": 3528,
      "start": 2472,
      "strand": 1
    },
    "NS2A": {
      "end": 4206,
      "start": 3528,
      "strand": 1
    },
    "NS2B": {
      "end": 4596,
      "start": 4206,
      "strand": 1
    },
    "NS3": {
      "end": 6447,
      "start": 4596,
      "strand": 1
    },
    "NS4A": {
      "end": 6828,
      "start": 6447,
      "strand": 1
    },
    "NS4B": {
      "end": 7650,
      "start": 6897,
      "strand": 1
    },
    "NS5": {
      "end": 10359,
      "start": 7650,
      "strand": 1
    },
    "PR": {
      "end": 735,
      "start": 456,
      "strand": 1
    },
    "nuc": {
      "end": 10769,
      "start": 0,
      "strand": 1
    }
  },
  "author_info": {
    "Azevedo et al": {
      "journal": "Unpublished",
      "n": 4,
      "title": "Genome sequences of four Zika virus isolates from Brazil"
    },
    "Barzon et al": {
      "journal": "Euro Surveill. 21 (32) (2016)",
      "n": 2,
      "title": "Infection dynamics in a traveller with persistent shedding of Zika virus RNA in semen for six months after returning from Haiti to Italy, January 2016"
    },
    "Black et al": {
      "journal": "?",
      "n": 37,
      "title": "Genetic characterization of the Zika virus epidemic in the US Virgin Islands"
    },
    "CDC-Yale Gen Epi team": {
      "journal": "Unpublished",
      "n": 88,
      "title": "Phylogenetics and Phylodynamics of Zika virus in Puerto Rico"
    },
    "Faria et al": {
      "journal": "Nature 546 (7658), 406-410 (2017)",
      "n": 47,
      "title": "Establishment and cryptic transmission of Zika virus in Brazil and the Americas"
    },
    "Giovanetti et al": {
      "journal": "Infect. Genet. Evol. 41, 142-145 (2016)",
      "n": 1,
      "title": "Zika virus complete genome from Salvador, Bahia, Brazil"
    },
    "Grubaugh et al": {
      "journal": "Nature (2017) In press",
      "n": 46,
      "title": "Genomic epidemiology reveals multiple introductions of Zika virus into the United States"
    },
    "Lamson et al": {
      "journal": "Unpublished",
      "n": 1,
      "title": "Rapid Method for Sequencing Whole Genome Sequence of Zika Virus"
    },
    "Lasala-Sanchez et al": {
      "journal": "Unpublished",
      "n": 1,
      "title": "Zika virus polyprotein sequence isolated from a fetus-brain of Cuba pregnant traveler diagnosed in Spain (Madrid)"
    },
    "Li et al": {
      "journal": "Unpublished",
      "n": 2,
      "title": "Identification of the First Imported Zika Case from Guatemala into Henan, Inland China: a case report"
    },
    "Metsky et al": {
      "journal": "Nature 546 (7658), 411-415 (2017)",
      "n": 89,
      "title": "Zika virus evolution and spread in the Americas"
    },
    "Pickett et al": {
      "journal": "Submitted (28-MAR-2019) J. Craig Venter Institute, 9704 Medical Center Drive, Rockville, MD 20850, USA",
      "n": 1,
      "title": "Direct Submission"
    },
    "Prilipov et al": {
      "journal": "Submitted (13-AUG-2017) Molecular Genetics, Ivanovsky virilogy Institute, Gamalei Centre of Microbiology and Epidemiology, Gamalei str., 16, Moscow 123098, Russia",
      "n": 1,
      "title": "Direct Submission"
    },
    "Sevilla-Reyes et al": {
      "journal": "Unpublished",
      "n": 2,
      "title": "Comparative analysis between the genomes of intra-host and cell cultured Zika virus obtained from a Mexican symptomatic patient"
    },
    "Shabman et al": {
      "journal": "Submitted (29-APR-2016) J. Craig Venter Institute, 9704 Medical Center Drive, Rockville, MD 20850, USA",
      "n": 16,
      "title": "Direct Submission"
    },
    "Souza et al": {
      "journal": "Unpublished",
      "n": 1,
      "title": "Complete Genome of a Zika Virus Isolate, Amazonas, Brazil, 2016"
    },
    "Strottmann et al": {
      "journal": "Unpublished",
      "n": 3,
      "title": "Molecular characterization of three Brazilian isolates of zika virus reveals genomic plasticity"
    },
    "Terzian et al": {
      "journal": "Sci Rep 8 (1), 16034 (2018)",
      "n": 4,
      "title": "Evidence of natural Zika virus infection in neotropical non-human primates in Brazil"
    },
    "Theze et al": {
      "journal": "Unpublished",
      "n": 53,
      "title": "Genome sequences of Zika viruses isolated in Nicaragua"
    }
  },
  "color_options": {
    "country": {
      "color_map": [
        [
          "brazil",
          "#5C7F7F"
        ],
        [
          "nicaragua",
          "#C7B5D9"
        ],
        [
          "honduras",
          "#AE9CC0"
        ],
        [
          "guatemala",
          "#88769A"
        ],
        [
          "mexico",
          "#7B698D"
        ],
        [
          "dominican_republic",
          "#E6C2C2"
        ],
        [
          "cuba",
          "#B38F8F"
        ],
        [
          "usvi",
          "#8D6969"
        ],
        [
          "usa",
          "#0374a0"
        ],
        [
          "puerto_rico",
          "#ce0909"
        ]
      ],
      "key": "country",
      "legendTitle": "Country",
      "menuItem": "country",
      "type": "discrete"
    },
    "num_date": {
      "key": "num_date",
      "legendTitle": "Sampling date",
      "menuItem": "date",
      "type": "continuous"
    },
    "region-in-PR": {
      "color_map": [
        [
          "1",
          "#C12352"
        ],
        [
          "2",
          "#CE0808"
        ],
        [
          "3",
          "#B43A83"
        ],
        [
          "4",
          "#A74D9E"
        ],
        [
          "5",
          "#7A698D"
        ],
        [
          "6",
          "#826393"
        ],
        [
          "7",
          "#8D5D9A"
        ],
        [
          "8",
          "#BA2F6D"
        ],
        [
          "saint_john",
          "#6F6F6F"
        ],
        [
          "saint_croix",
          "#6F6F6F"
        ],
        [
          "saint_thomas",
          "#6F6F6F"
        ],
        [
          "brazil",
          "#BBBBBB"
        ],
        [
          "nicaragua",
          "#BBBBBB"
        ],
        [
          "honduras",
          "#BBBBBB"
        ],
        [
          "guatemala",
          "#BBBBBB"
        ],
        [
          "mexico",
          "#BBBBBB"
        ],
        [
          "dominican_republic",
          "#BBBBBB"
        ],
        [
          "cuba",
          "#BBBBBB"
        ],
        [
          "usa",
          "#BBBBBB"
        ]
      ],
      "key": "region-in-PR",
      "legendTitle": "Region within Puerto Rico",
      "menuItem": "within-PR",
      "type": "discrete"
    }
  },
  "defaults": {
    "colorBy": "country",
    "geoResolution": "country",
    "mapTriplicate": false
  },
  "filters": [
    "country",
    "region-in-PR",
    "authors"
  ],
  "geo": {
    "country": {
      "brazil": {
        "latitude": -10.3333332,
        "longitude": -53.1999999
      },
      "cuba": {
        "latitude": 22.0,
        "longitude": -79.5
      },
      "dominican_republic": {
        "latitude": 18.50012,
        "longitude": -69.98857
      },
      "guatemala": {
        "latitude": 15.6356088,
        "longitude": -89.8988086
      },
      "honduras": {
        "latitude": 15.0610686,
        "longitude": -84.5978533
      },
      "mexico": {
        "latitude": 19.4325301,
        "longitude": -99.1332101
      },
      "nicaragua": {
        "latitude": 13.0,
        "longitude": -85.0
      },
      "puerto_rico": {
        "latitude": 18.2459121,
        "longitude": -66.4164147
      },
      "usa": {
        "latitude": 25.796061,
        "longitude": -80.2859
      },
      "usvi": {
        "latitude": 18.3378801,
        "longitude": -64.8982827
      }
    },
    "region-in-PR": {
      "1": {
        "latitude": 18.417276,
        "longitude": -66.062786
      },
      "2": {
        "latitude": 18.296277,
        "longitude": -65.681852
      },
      "3": {
        "latitude": 18.041631,
        "longitude": -66.089852
      },
      "4": {
        "latitude": 18.016545,
        "longitude": -66.649073
      },
      "5": {
        "latitude": 18.23336,
        "longitude": -67.113032
      },
      "6": {
        "latitude": 18.456029,
        "longitude": -66.684108
      },
      "7": {
        "latitude": 18.276068,
        "longitude": -66.62612
      },
      "8": {
        "latitude": 18.204899,
        "longitude": -66.146842
      },
      "brazil": {
        "latitude": -10.3333332,
        "longitude": -53.1999999
      },
      "cuba": {
        "latitude": 22.0,
        "longitude": -79.5
      },
      "dominican_republic": {
        "latitude": 18.50012,
        "longitude": -69.98857
      },
      "guatemala": {
        "latitude": 15.6356088,
        "longitude": -89.8988086
      },
      "honduras": {
        "latitude": 15.0610686,
        "longitude": -84.5978533
      },
      "mexico": {
        "latitude": 19.4325301,
        "longitude": -99.1332101
      },
      "nicaragua": {
        "latitude": 13.0,
        "longitude": -85.0
      },
      "saint_croix": {
        "latitude": 17.721476,
        "longitude": -64.836883
      },
      "saint_john": {
        "latitude": 18.336585,
        "longitude": -64.728638
      },
      "saint_thomas": {
        "latitude": 18.340531,
        "longitude": -64.899941
      },
      "usa": {
        "latitude": 25.796061,
        "longitude": -80.2859
      }
    }
  },
  "maintainer": [
    "Chaney Kalinich",
    "github.com/grubaughlab/ZIKV-PR/tree/master/config"
  ],
  "panels": [
    "tree",
    "map",
    "entropy"
  ],
  "title": "Zika virus emergence in Puerto Rico",
  "updated": "07 Feb 2020",
  "virus_count": 126
}