{
  "annotations": {
    "2K": {
      "end": 6897,
      "start": 6828,
      "strand": 1
    },
    "C": {
      "end": 456,
      "start": 90,
      "strand": 1
    },
    "E": {
      "end": 2472,
      "start": 960,
      "strand": 1
    },
    "M": {
      "end": 960,
      "start": 735,
      "strand": 1
    },
    "NS1": {
      "end": 3528,
      "start": 2472,
      "strand": 1
    },
    "NS2A": {
      "end": 4206,
      "start": 3528,
      "strand": 1
    },
    "NS2B": {
      "end": 4596,
      "start": 4206,
      "strand": 1
    },
    "NS3": {
      "end": 6447,
      "start": 4596,
      "strand": 1
    },
    "NS4A": {
      "end": 6828,
      "start": 6447,
      "strand": 1
    },
    "NS4B": {
      "end": 7650,
      "start": 6897,
      "strand": 1
    },
    "NS5": {
      "end": 10359,
      "start": 7650,
      "strand": 1
    },
    "PR": {
      "end": 735,
      "start": 456,
      "strand": 1
    },
    "nuc": {
      "end": 10769,
      "start": 0,
      "strand": 1
    }
  },
  "author_info": {
    "Azevedo et al": {
      "journal": "Unpublished",
      "n": 4,
      "title": "Genome sequences of four Zika virus isolates from Brazil"
    },
    "Donald et al": {
      "journal": "PLoS Negl Trop Dis 10 (10), E0005048 (2016)",
      "n": 1,
      "title": "Full Genome Sequence and sfRNA Interferon Antagonist Activity of Zika Virus from Recife, Brazil"
    },
    "Enfissi et al": {
      "journal": "Lancet 387 (10015), 227-228 (2016)",
      "n": 2,
      "title": "Zika virus genome from the Americas"
    },
    "Faria et al": {
      "journal": "Nature 546 (7658), 406-410 (2017)",
      "n": 38,
      "title": "Establishment and cryptic transmission of Zika virus in Brazil and the Americas"
    },
    "Kneubehl et al": {
      "journal": "Submitted (26-APR-2017) Molecular Virology and Microbiology, Baylor College of Medicine, One Baylor Plaza, Houston, TX 77030, USA",
      "n": 1,
      "title": "Direct Submission"
    },
    "Lanciotti et al": {
      "journal": "Emerging Infect. Dis. 14 (8), 1232-1239 (2008)",
      "n": 6,
      "title": "Genetic and serologic properties of Zika virus associated with an"
    },
    "Marquez et al": {
      "journal": "Genome Announc 5 (8), e01673-16 (2017)",
      "n": 2,
      "title": "First Complete Genome Sequences of Zika Virus Isolated from Febrile Patient Sera in Ecuador"
    },
    "Mlakar et al": {
      "journal": "N. Engl. J. Med. 374 (10), 951-958 (2016)",
      "n": 1,
      "title": "Zika Virus Associated with Microcephaly"
    },
    "Naccache et al": {
      "journal": "Emerging Infect. Dis. 22 (10), 1788-1792 (2016)",
      "n": 4,
      "title": "Distinct Zika Virus Lineage in Salvador, Bahia, Brazil"
    },
    "Pettersson et al": {
      "journal": "MBio 7 (5), e01239-16 (2016)",
      "n": 4,
      "title": "How Did Zika Virus Emerge in the Pacific Islands and Latin America?"
    },
    "Piorkowski et al": {
      "journal": "New Microbes New Infect 11, 52-53 (2016)",
      "n": 1,
      "title": "Complete coding sequence of Zika virus from Martinique outbreak in 2015"
    },
    "Shabman et al": {
      "journal": "Submitted (29-APR-2016) J. Craig Venter Institute, 9704 Medical Center Drive, Rockville, MD 20850, USA",
      "n": 16,
      "title": "Direct Submission"
    },
    "Tan et al": {
      "journal": "Viruses 10 (1), E44 (2018)",
      "n": 17,
      "title": "Viral and Antibody Kinetics, and Mosquito Infectivity of an Imported Case of Zika Fever Due to Asian Genotype (American Strain) in Singapore"
    },
    "Theze et al": {
      "journal": "Unpublished",
      "n": 41,
      "title": "Genome sequences of Zika viruses isolated in Nicaragua"
    },
    "Tsetsarkin et al": {
      "journal": "MBio 7 (4), e01114-16 (2016)",
      "n": 1,
      "title": "A Full-Length Infectious cDNA Clone of Zika Virus from the 2015 Epidemic in Brazil as a Genetic Platform for Studies of Virus-Host Interactions and Vaccine Development"
    }
  },
  "color_options": {
    "country": {
      "color_map": [
        [
          "french_polynesia",
          "#7d7d7d"
        ],
        [
          "brazil",
          "#5C7F7F"
        ],
        [
          "ecuador",
          "#769999"
        ],
        [
          "colombia",
          "#8FB2B2"
        ],
        [
          "french_guiana",
          "#A9CCCC"
        ],
        [
          "panama",
          "#E1CFF3"
        ],
        [
          "honduras",
          "#AE9CC0"
        ],
        [
          "mexico",
          "#7B698D"
        ],
        [
          "martinique",
          "#CDA9A9"
        ],
        [
          "cuba",
          "#B38F8F"
        ]
      ],
      "key": "country",
      "legendTitle": "Country",
      "menuItem": "country",
      "type": "discrete"
    },
    "num_date": {
      "key": "num_date",
      "legendTitle": "Sampling date",
      "menuItem": "date",
      "type": "continuous"
    },
    "region-in-PR": {
      "color_map": [
        [
          "french_polynesia",
          "#BBBBBB"
        ],
        [
          "brazil",
          "#BBBBBB"
        ],
        [
          "ecuador",
          "#BBBBBB"
        ],
        [
          "colombia",
          "#BBBBBB"
        ],
        [
          "french_guiana",
          "#BBBBBB"
        ],
        [
          "panama",
          "#BBBBBB"
        ],
        [
          "honduras",
          "#BBBBBB"
        ],
        [
          "mexico",
          "#BBBBBB"
        ],
        [
          "martinique",
          "#BBBBBB"
        ],
        [
          "cuba",
          "#BBBBBB"
        ]
      ],
      "key": "region-in-PR",
      "legendTitle": "Region within Puerto Rico",
      "menuItem": "within-PR",
      "type": "discrete"
    }
  },
  "defaults": {
    "colorBy": "country",
    "geoResolution": "country",
    "mapTriplicate": false
  },
  "filters": [
    "country",
    "region-in-PR",
    "authors"
  ],
  "geo": {
    "country": {
      "brazil": {
        "latitude": -10.3333332,
        "longitude": -53.1999999
      },
      "colombia": {
        "latitude": 2.893108,
        "longitude": -73.7845142
      },
      "cuba": {
        "latitude": 22.0,
        "longitude": -79.5
      },
      "ecuador": {
        "latitude": -1.3397667,
        "longitude": -79.3666964
      },
      "french_guiana": {
        "latitude": 4.93333,
        "longitude": -52.33333
      },
      "french_polynesia": {
        "latitude": -17.6797,
        "longitude": -149.4068
      },
      "honduras": {
        "latitude": 15.0610686,
        "longitude": -84.5978533
      },
      "martinique": {
        "latitude": 14.6415,
        "longitude": -61.0242
      },
      "mexico": {
        "latitude": 19.4325301,
        "longitude": -99.1332101
      },
      "micronesia": {
        "latitude": 6.924,
        "longitude": 158.162
      },
      "panama": {
        "latitude": 8.3096067,
        "longitude": -81.3066245
      }
    },
    "region-in-PR": {
      "brazil": {
        "latitude": -10.3333332,
        "longitude": -53.1999999
      },
      "colombia": {
        "latitude": 2.893108,
        "longitude": -73.7845142
      },
      "cuba": {
        "latitude": 22.0,
        "longitude": -79.5
      },
      "ecuador": {
        "latitude": -1.3397667,
        "longitude": -79.3666964
      },
      "french_guiana": {
        "latitude": 4.93333,
        "longitude": -52.33333
      },
      "french_polynesia": {
        "latitude": -17.6797,
        "longitude": -149.4068
      },
      "honduras": {
        "latitude": 15.0610686,
        "longitude": -84.5978533
      },
      "martinique": {
        "latitude": 14.6415,
        "longitude": -61.0242
      },
      "mexico": {
        "latitude": 19.4325301,
        "longitude": -99.1332101
      },
      "panama": {
        "latitude": 8.3096067,
        "longitude": -81.3066245
      }
    }
  },
  "maintainer": [
    "Chaney Kalinich",
    "github.com/grubaughlab/ZIKV-PR/tree/master/config"
  ],
  "panels": [
    "tree",
    "map",
    "entropy"
  ],
  "title": "Zika virus emergence in Puerto Rico",
  "updated": "09 Mar 2020",
  "virus_count": 22
}